{"Park_Code":"ACAD","Park_Name":"Acadia National Park","State":"ME","Acres":47390,"Latitude":44.35,"Longitude":-68.21}
{"Park_Code":"ARCH","Park_Name":"Arches National Park","State":"UT","Acres":76519,"Latitude":38.68,"Longitude":-109.57}
{"Park_Code":"BADL","Park_Name":"Badlands National Park","State":"SD","Acres":242756,"Latitude":43.75,"Longitude":-102.5}
{"Park_Code":"BIBE","Park_Name":"Big Bend National Park","State":"TX","Acres":801163,"Latitude":29.25,"Longitude":-103.25}
{"Park_Code":"BISC","Park_Name":"Biscayne National Park","State":"FL","Acres":172924,"Latitude":25.65,"Longitude":-80.08}
{"Park_Code":"BLCA","Park_Name":"Black Canyon of the Gunnison National Park","State":"CO","Acres":32950,"Latitude":38.57,"Longitude":-107.72}
{"Park_Code":"BRCA","Park_Name":"Bryce Canyon National Park","State":"UT","Acres":35835,"Latitude":37.57,"Longitude":-112.18}
{"Park_Code":"CANY","Park_Name":"Canyonlands National Park","State":"UT","Acres":337598,"Latitude":38.2,"Longitude":-109.93}
{"Park_Code":"CARE","Park_Name":"Capitol Reef National Park","State":"UT","Acres":241904,"Latitude":38.2,"Longitude":-111.17}
{"Park_Code":"CAVE","Park_Name":"Carlsbad Caverns National Park","State":"NM","Acres":46766,"Latitude":32.17,"Longitude":-104.44}
{"Park_Code":"CHIS","Park_Name":"Channel Islands National Park","State":"CA","Acres":249561,"Latitude":34.01,"Longitude":-119.42}
{"Park_Code":"CONG","Park_Name":"Congaree National Park","State":"SC","Acres":26546,"Latitude":33.78,"Longitude":-80.78}
{"Park_Code":"CRLA","Park_Name":"Crater Lake National Park","State":"OR","Acres":183224,"Latitude":42.94,"Longitude":-122.1}
{"Park_Code":"CUVA","Park_Name":"Cuyahoga Valley National Park","State":"OH","Acres":32950,"Latitude":41.24,"Longitude":-81.55}
{"Park_Code":"DENA","Park_Name":"Denali National Park and Preserve","State":"AK","Acres":3372402,"Latitude":63.33,"Longitude":-150.5}
{"Park_Code":"DEVA","Park_Name":"Death Valley National Park","State":"CA, NV","Acres":4740912,"Latitude":36.24,"Longitude":-116.82}
{"Park_Code":"DRTO","Park_Name":"Dry Tortugas National Park","State":"FL","Acres":64701,"Latitude":24.63,"Longitude":-82.87}
{"Park_Code":"EVER","Park_Name":"Everglades National Park","State":"FL","Acres":1508538,"Latitude":25.32,"Longitude":-80.93}
{"Park_Code":"GAAR","Park_Name":"Gates Of The Arctic National Park and Preserve","State":"AK","Acres":7523898,"Latitude":67.78,"Longitude":-153.3}
{"Park_Code":"GLAC","Park_Name":"Glacier National Park","State":"MT","Acres":1013572,"Latitude":48.8,"Longitude":-114.0}
{"Park_Code":"GLBA","Park_Name":"Glacier Bay National Park and Preserve","State":"AK","Acres":3224840,"Latitude":58.5,"Longitude":-137.0}
{"Park_Code":"GRBA","Park_Name":"Great Basin National Park","State":"NV","Acres":77180,"Latitude":38.98,"Longitude":-114.3}
{"Park_Code":"GRCA","Park_Name":"Grand Canyon National Park","State":"AZ","Acres":1217403,"Latitude":36.06,"Longitude":-112.14}
{"Park_Code":"GRSA","Park_Name":"Great Sand Dunes National Park and Preserve","State":"CO","Acres":42984,"Latitude":37.73,"Longitude":-105.51}
{"Park_Code":"GRSM","Park_Name":"Great Smoky Mountains National Park","State":"TN, NC","Acres":521490,"Latitude":35.68,"Longitude":-83.53}
{"Park_Code":"GRTE","Park_Name":"Grand Teton National Park","State":"WY","Acres":309995,"Latitude":43.73,"Longitude":-110.8}
{"Park_Code":"GUMO","Park_Name":"Guadalupe Mountains National Park","State":"TX","Acres":86416,"Latitude":31.92,"Longitude":-104.87}
{"Park_Code":"HALE","Park_Name":"Haleakala National Park","State":"HI","Acres":29094,"Latitude":20.72,"Longitude":-156.17}
{"Park_Code":"HAVO","Park_Name":"Hawaii Volcanoes National Park","State":"HI","Acres":323431,"Latitude":19.38,"Longitude":-155.2}
{"Park_Code":"HOSP","Park_Name":"Hot Springs National Park","State":"AR","Acres":5550,"Latitude":34.51,"Longitude":-93.05}
{"Park_Code":"ISRO","Park_Name":"Isle Royale National Park","State":"MI","Acres":571790,"Latitude":48.1,"Longitude":-88.55}
{"Park_Code":"JOTR","Park_Name":"Joshua Tree National Park","State":"CA","Acres":789745,"Latitude":33.79,"Longitude":-115.9}
{"Park_Code":"KATM","Park_Name":"Katmai National Park and Preserve","State":"AK","Acres":3674530,"Latitude":58.5,"Longitude":-155.0}
{"Park_Code":"KEFJ","Park_Name":"Kenai Fjords National Park","State":"AK","Acres":669983,"Latitude":59.92,"Longitude":-149.65}
{"Park_Code":"KOVA","Park_Name":"Kobuk Valley National Park","State":"AK","Acres":1750717,"Latitude":67.55,"Longitude":-159.28}
{"Park_Code":"LACL","Park_Name":"Lake Clark National Park and Preserve","State":"AK","Acres":2619733,"Latitude":60.97,"Longitude":-153.42}
{"Park_Code":"LAVO","Park_Name":"Lassen Volcanic National Park","State":"CA","Acres":106372,"Latitude":40.49,"Longitude":-121.51}
{"Park_Code":"MACA","Park_Name":"Mammoth Cave National Park","State":"KY","Acres":52830,"Latitude":37.18,"Longitude":-86.1}
{"Park_Code":"MEVE","Park_Name":"Mesa Verde National Park","State":"CO","Acres":52122,"Latitude":37.18,"Longitude":-108.49}
{"Park_Code":"MORA","Park_Name":"Mount Rainier National Park","State":"WA","Acres":235625,"Latitude":46.85,"Longitude":-121.75}
{"Park_Code":"NOCA","Park_Name":"North Cascades National Park","State":"WA","Acres":504781,"Latitude":48.7,"Longitude":-121.2}
{"Park_Code":"OLYM","Park_Name":"Olympic National Park","State":"WA","Acres":922651,"Latitude":47.97,"Longitude":-123.5}
{"Park_Code":"PEFO","Park_Name":"Petrified Forest National Park","State":"AZ","Acres":93533,"Latitude":35.07,"Longitude":-109.78}
{"Park_Code":"PINN","Park_Name":"Pinnacles National Park","State":"CA","Acres":26606,"Latitude":36.48,"Longitude":-121.16}
{"Park_Code":"REDW","Park_Name":"Redwood National Park","State":"CA","Acres":112512,"Latitude":41.3,"Longitude":-124.0}
{"Park_Code":"ROMO","Park_Name":"Rocky Mountain National Park","State":"CO","Acres":265828,"Latitude":40.4,"Longitude":-105.58}
{"Park_Code":"SAGU","Park_Name":"Saguaro National Park","State":"AZ","Acres":91440,"Latitude":32.25,"Longitude":-110.5}
{"Park_Code":"SEKI","Park_Name":"Sequoia and Kings Canyon National Parks","State":"CA","Acres":865952,"Latitude":36.43,"Longitude":-118.68}
{"Park_Code":"SHEN","Park_Name":"Shenandoah National Park","State":"VA","Acres":199045,"Latitude":38.53,"Longitude":-78.35}
{"Park_Code":"THRO","Park_Name":"Theodore Roosevelt National Park","State":"ND","Acres":70447,"Latitude":46.97,"Longitude":-103.45}
{"Park_Code":"VOYA","Park_Name":"Voyageurs National Park","State":"MN","Acres":218200,"Latitude":48.5,"Longitude":-92.88}
{"Park_Code":"WICA","Park_Name":"Wind Cave National Park","State":"SD","Acres":28295,"Latitude":43.57,"Longitude":-103.48}
{"Park_Code":"WRST","Park_Name":"Wrangell - St Elias National Park and Preserve","State":"AK","Acres":8323148,"Latitude":61.0,"Longitude":-142.0}
{"Park_Code":"YELL","Park_Name":"Yellowstone National Park","State":"WY, MT, ID","Acres":2219791,"Latitude":44.6,"Longitude":-110.5}
{"Park_Code":"YOSE","Park_Name":"Yosemite National Park","State":"CA","Acres":761266,"Latitude":37.83,"Longitude":-119.5}
{"Park_Code":"ZION","Park_Name":"Zion National Park","State":"UT","Acres":146598,"Latitude":37.3,"Longitude":-113.05}
